,City ID,City Name,Country Code,Date,Latitude,Longitude,Humidity,Temperature,Wind Speed,Cloudiness
0,2075265,Busselton,AU,05/03/20,-33.65,115.33,79,65.8,17.9,77
1,935215,Saint-Philippe,RE,05/03/20,-21.36,55.77,78,71.08,5.82,20
2,5404476,Ukiah,US,05/03/20,39.15,-123.21,33,65.64,10.29,1
3,2025256,Chumikan,RU,05/03/20,54.72,135.31,88,33.24,16.75,17
4,1015776,Bredasdorp,ZA,05/03/20,-34.53,20.04,93,55.4,1.12,73
5,3831208,Qaanaaq,GL,05/03/20,77.48,-69.36,89,22.1,2.66,97
6,934322,Mahébourg,MU,05/03/20,-20.41,57.7,88,75.2,9.17,40
7,3871336,Santiago,CL,05/03/20,-33.46,-70.65,45,66.2,4.27,100
8,3035843,Auxerre,FR,05/03/20,47.8,3.57,93,53.92,4.29,70
9,3833367,Ushuaia,AR,05/03/20,-54.8,-68.3,64,39.2,5.82,40
10,3366880,Hermanus,ZA,05/03/20,-34.42,19.23,81,57.0,1.01,92
11,3874787,Punta Arenas,CL,05/03/20,-53.15,-70.92,93,41.86,6.93,100
12,4035715,Avarua,CK,05/03/20,-21.21,-159.78,78,78.8,8.05,27
13,986717,Kruisfontein,ZA,05/03/20,-34.0,24.73,89,57.29,10.42,100
14,2319133,Warri,NG,05/03/20,5.52,5.75,84,77.49,3.33,70
15,3628473,San Cristobal,VE,05/03/20,7.77,-72.22,59,89.6,10.29,40
16,2180815,Tuatapere,NZ,05/03/20,-46.13,167.68,88,47.75,14.38,100
17,6201424,Mataura,NZ,05/03/20,-46.19,168.86,87,49.62,5.55,93
18,3645532,Ciudad Bolivar,VE,05/03/20,8.12,-63.55,45,90.72,13.8,85
19,5557293,Sitka,US,05/03/20,57.05,-135.33,87,46.4,13.87,90
20,964432,Port Alfred,ZA,05/03/20,-33.59,26.89,98,59.0,4.0,100
21,2014078,Urusha,RU,05/03/20,54.05,122.9,55,36.36,5.79,100
22,5106841,Albany,US,05/03/20,42.6,-73.97,31,75.34,6.93,40
23,3653159,Píllaro,EC,05/03/20,-1.17,-78.53,82,55.4,18.34,75
24,4031574,Provideniya,RU,05/03/20,64.38,-173.3,71,37.54,1.99,0
25,2094342,Kavieng,PG,05/03/20,-2.57,150.8,82,83.55,14.32,69
26,1529376,Korla,CN,05/03/20,41.76,86.15,38,66.0,3.0,99
27,1856068,Nago,JP,05/03/20,26.59,127.98,94,75.85,6.93,90
28,2110227,Butaritari,KI,05/03/20,3.07,172.79,82,81.95,9.19,100
29,933995,Souillac,MU,05/03/20,-20.52,57.52,88,75.2,9.17,40
30,5563839,Fortuna,US,05/03/20,40.6,-124.16,58,59.27,13.87,1
31,2055868,Yantal',RU,05/03/20,56.85,105.25,77,40.91,1.92,91
32,3924752,Senador Guiomard,BR,05/03/20,-10.15,-67.74,100,80.6,2.66,40
33,4020109,Atuona,PF,05/03/20,-9.8,-139.03,73,81.88,17.4,15
34,3579925,St. George's,GD,05/03/20,12.06,-61.75,74,84.2,13.87,20
35,5880054,Barrow,US,05/03/20,71.29,-156.79,84,8.6,6.93,20
36,6148373,Sioux Lookout,CA,05/03/20,50.1,-91.92,80,33.8,4.7,75
37,2070998,Geraldton,AU,05/03/20,-28.77,114.6,88,64.4,11.41,75
38,2121385,Severo-Kuril'sk,RU,05/03/20,50.68,156.12,70,39.76,12.84,60
39,5122534,Jamestown,US,05/03/20,42.1,-79.24,34,63.66,14.99,1
40,1282256,Hithadhoo,MV,05/03/20,-0.6,73.08,76,84.15,25.61,98
41,4362001,Mayo,US,05/03/20,38.89,-76.51,57,73.92,6.93,1
42,2510725,Tacoronte,ES,05/03/20,28.48,-16.41,87,64.33,17.22,2
43,3424607,Tasiilaq,GL,05/03/20,65.61,-37.64,92,30.2,27.51,100
44,5972291,Havre-St-Pierre,CA,05/03/20,50.23,-63.6,52,46.4,6.17,8
45,5866583,Saint Paul Harbor,US,05/03/20,57.79,-152.41,30,55.4,14.99,1
46,2458624,Diré,ML,05/03/20,12.28,-10.97,18,90.61,1.45,0
47,4030556,Rikitea,PF,05/03/20,-23.12,-134.97,76,73.9,14.65,100
48,4004293,Ixtapa,MX,05/03/20,20.7,-105.2,65,81.18,14.99,75
49,3420768,Qasigiannguit,GL,05/03/20,68.82,-51.19,86,30.2,3.36,97
50,5861897,Fairbanks,US,05/03/20,64.84,-147.72,23,49.26,16.11,1
51,3609667,French Harbor,HN,05/03/20,16.35,-86.43,79,82.2,18.25,0
52,5855927,Hilo,US,05/03/20,19.73,-155.09,61,78.22,8.05,75
53,1735106,George Town,MY,05/03/20,5.41,100.34,94,78.4,4.7,20
54,3423146,Ilulissat,GL,05/03/20,69.22,-51.1,86,30.2,3.36,100
55,88319,Benghazi,LY,05/03/20,32.12,20.07,86,65.75,12.73,22
56,2163355,Hobart,AU,05/03/20,-42.88,147.33,87,53.02,6.93,20
57,6165406,Thompson,CA,05/03/20,55.74,-97.86,30,41.0,4.7,40
58,1264037,Malpe,IN,05/03/20,13.35,74.72,88,82.22,3.69,85
59,2191562,Dunedin,NZ,05/03/20,-45.87,170.5,64,56.35,6.08,100
60,1106677,Bambous Virieux,MU,05/03/20,-20.34,57.76,88,76.53,9.17,40
61,3163146,Andenes,NO,05/03/20,69.31,16.12,86,39.2,4.7,100
62,6111867,Port Hawkesbury,CA,05/03/20,45.62,-61.35,52,45.54,8.05,20
63,546105,Nikolskoye,RU,05/03/20,59.7,30.79,93,41.23,2.59,40
64,1006984,East London,ZA,05/03/20,-33.02,27.91,75,66.18,10.58,95
65,1712961,Gigmoto,PH,05/03/20,13.78,124.39,82,83.34,11.36,91
66,3144987,Beisfjord,NO,05/03/20,68.38,17.6,86,37.4,11.41,100
67,1649150,Bengkulu,ID,05/03/20,-3.8,102.27,88,75.43,4.9,92
68,3530599,Ciudad del Carmen,MX,05/03/20,18.63,-91.83,66,87.8,13.87,40
69,3698359,Chicama,PE,05/03/20,-7.84,-79.15,65,74.01,8.46,41
70,748893,Çorlu,TR,05/03/20,41.16,27.8,93,55.4,5.82,75
71,3466704,Castro,BR,05/03/20,-24.79,-50.01,61,55.26,5.06,1
72,2208248,Kaitangata,NZ,05/03/20,-46.28,169.85,69,55.99,1.99,92
73,3443061,Chui,UY,05/03/20,-33.7,-53.46,80,56.95,6.2,23
74,2264923,Peniche,PT,05/03/20,39.36,-9.38,88,65.57,5.99,41
75,2194098,Ahipara,NZ,05/03/20,-35.17,173.17,78,64.18,16.78,5
76,2071860,Esperance,AU,05/03/20,-33.87,121.9,38,60.8,18.34,82
77,5924351,Clyde River,CA,05/03/20,70.47,-68.59,72,14.0,9.17,1
78,2013279,Vostok,RU,05/03/20,46.49,135.88,79,36.23,1.28,100
79,1523741,Esik,KZ,05/03/20,43.36,77.45,76,55.4,6.71,75
80,1507390,Dikson,RU,05/03/20,73.51,80.55,96,10.2,9.69,90
81,2206939,Bluff,NZ,05/03/20,-46.6,168.33,88,49.06,20.09,98
82,7671223,Kloulklubed,PW,05/03/20,7.04,134.26,94,77.0,6.38,75
83,1651810,Airai,TL,05/03/20,-8.93,125.41,64,60.12,3.67,76
84,3661944,Tefé,BR,05/03/20,-3.35,-64.71,85,79.0,1.45,85
85,964420,Port Elizabeth,ZA,05/03/20,-33.92,25.57,93,59.0,2.24,75
86,3380290,Sinnamary,GF,05/03/20,5.38,-52.95,90,78.49,11.72,100
87,5969025,Haines Junction,CA,05/03/20,60.75,-137.51,70,40.3,2.8,100
88,2136150,Luganville,VU,05/03/20,-15.53,167.17,74,84.2,2.24,75
89,5364271,Laguna,US,05/03/20,38.42,-121.42,19,76.78,4.7,1
90,612230,Sagarejo,GE,05/03/20,41.73,45.33,72,59.0,9.17,40
91,5972762,Hay River,CA,05/03/20,60.82,-115.8,65,46.4,12.75,40
92,5866063,Kenai,US,05/03/20,60.55,-151.26,28,54.66,14.99,75
93,6111862,Port Hardy,CA,05/03/20,50.7,-127.42,62,51.8,13.87,90
94,6185377,Yellowknife,CA,05/03/20,62.46,-114.35,65,45.32,4.7,75
95,2126199,Cherskiy,RU,05/03/20,68.75,161.3,96,29.34,3.8,100
96,3355672,Lüderitz,NA,05/03/20,-26.65,15.16,66,64.94,17.02,0
97,3894426,Coyhaique,CL,05/03/20,-45.58,-72.07,87,44.6,6.93,75
98,5870133,Nome,US,05/03/20,64.5,-165.41,33,43.0,9.17,1
99,1487332,Verkhnyaya Inta,RU,05/03/20,65.98,60.31,96,24.96,3.36,100
100,2178753,Kirakira,SB,05/03/20,-10.45,161.92,72,85.51,5.32,80
101,1806466,Guangyuan,CN,05/03/20,32.44,105.82,61,75.0,3.2,100
102,2155415,New Norfolk,AU,05/03/20,-42.78,147.06,83,52.61,2.46,53
103,3581194,San Ignacio,BZ,05/03/20,17.16,-89.07,49,89.33,13.87,75
104,3466980,Caravelas,BR,05/03/20,-17.71,-39.25,73,75.45,13.67,26
105,2030065,Mandalgovi,MN,05/03/20,45.76,106.27,22,50.9,7.72,40
106,3418910,Upernavik,GL,05/03/20,72.79,-56.15,93,19.53,6.76,100
107,3836669,San Rafael,AR,05/03/20,-34.62,-68.33,37,62.51,9.73,65
108,2156643,Mount Gambier,AU,05/03/20,-37.83,140.77,100,48.2,5.82,90
109,3412093,Vestmannaeyjar,IS,05/03/20,63.44,-20.27,66,41.72,7.7,100
110,137956,Dārāb,IR,05/03/20,28.75,54.54,31,67.93,1.99,0
111,648900,Lappeenranta,FI,05/03/20,61.06,28.19,93,39.85,3.36,13
112,2017155,Saskylakh,RU,05/03/20,71.92,114.08,95,13.46,3.96,66
113,1729564,Bacolod City,PH,05/03/20,10.67,122.95,76,83.3,2.33,100
114,935214,Saint-Pierre,RE,05/03/20,-21.34,55.48,78,69.55,5.82,20
115,2120048,Ust-Nera,RU,05/03/20,64.57,143.2,86,21.36,8.3,100
116,4470244,Havelock,US,05/03/20,34.88,-76.9,71,72.34,4.0,4
117,4513583,Hamilton,US,05/03/20,39.18,-84.53,88,64.63,5.82,90
118,6144312,Sept-Îles,CA,05/03/20,50.2,-66.38,77,43.32,9.17,90
119,4032243,Vaini,TO,05/03/20,-21.2,-175.2,78,80.6,6.93,40
120,3906466,Riberalta,BO,05/03/20,-10.98,-66.1,65,79.59,1.9,49
121,3883457,Lebu,CL,05/03/20,-37.62,-73.65,81,55.4,4.09,100
122,1529484,Kumul,CN,05/03/20,42.8,93.45,19,69.04,11.52,57
123,2641434,Northam,GB,05/03/20,51.03,-4.22,99,48.67,1.01,97
124,2252606,Bakel,SN,05/03/20,14.9,-12.46,11,93.11,7.54,0
125,1516048,Khovd,MN,05/03/20,48.01,91.64,21,53.83,6.42,77
126,2094027,Kieta,PG,05/03/20,-6.22,155.63,68,84.79,3.38,77
127,933416,Manyana,BW,05/03/20,-23.4,21.72,19,62.01,5.55,0
128,3397763,Jacareacanga,BR,05/03/20,-6.22,-57.75,93,76.37,1.92,98
129,8070858,Gambiran,ID,05/03/20,-6.8,111.5,90,75.47,3.87,9
130,1244926,Hambantota,LK,05/03/20,6.12,81.12,100,77.0,3.36,20
131,3466165,Cidreira,BR,05/03/20,-30.18,-50.21,69,64.71,10.07,0
132,2264557,Ponta do Sol,PT,05/03/20,32.67,-17.1,72,60.51,21.92,75
133,3361934,Saldanha,ZA,05/03/20,-33.01,17.94,81,53.6,1.12,45
134,2514651,Los Llanos de Aridane,ES,05/03/20,28.66,-17.92,46,71.6,19.46,43
135,5367788,Lompoc,US,05/03/20,34.64,-120.46,52,63.18,16.11,1
136,3652764,Puerto Ayora,EC,05/03/20,-0.74,-90.35,70,80.92,12.75,20
137,2181625,Te Anau,NZ,05/03/20,-45.42,167.72,82,46.69,5.28,93
138,1057095,Sakaraha,MG,05/03/20,-22.9,44.53,74,63.46,3.24,0
139,2648579,Glasgow,GB,05/03/20,55.87,-4.26,81,48.07,6.93,62
140,3369157,Cape Town,ZA,05/03/20,-33.93,18.42,87,54.59,2.24,99
141,2077895,Alice Springs,AU,05/03/20,-23.7,133.88,71,50.0,12.26,0
142,3347019,Mossamedes,AO,05/03/20,-15.2,12.15,56,78.1,1.23,0
143,1261142,Numāligarh,IN,05/03/20,26.63,93.75,81,72.14,0.72,12
144,3372707,Ribeira Grande,PT,05/03/20,38.52,-28.7,77,60.46,30.56,99
145,1266821,Khawhai,IN,05/03/20,23.37,93.12,73,54.86,1.88,4
146,2132606,Samarai,PG,05/03/20,-10.62,150.67,83,81.61,15.3,99
147,1624041,Ternate,ID,05/03/20,0.8,127.4,74,83.05,2.42,84
148,1684803,Tabuk,PH,05/03/20,17.42,121.44,77,79.14,4.7,81
149,3386213,Touros,BR,05/03/20,-5.2,-35.46,78,80.6,6.93,20
150,5983720,Iqaluit,CA,05/03/20,63.75,-68.51,72,12.09,16.11,75
151,2381334,Atar,MR,05/03/20,20.52,-13.05,11,86.23,4.38,0
152,6930743,Vzmorye,RU,05/03/20,54.7,20.24,100,41.0,4.47,0
153,2164457,Grenfell,AU,05/03/20,-33.9,148.17,71,46.18,2.8,0
154,715355,Szendrő,HU,05/03/20,48.4,20.73,66,50.0,8.05,30
155,2025456,Chernyshevskiy,RU,05/03/20,63.01,112.47,73,34.09,2.73,44
156,2270385,Camacha,PT,05/03/20,33.08,-16.33,77,66.2,14.99,40
157,917011,Gwembe,ZM,05/03/20,-16.5,27.61,44,63.72,0.69,5
158,2121025,Srednekolymsk,RU,05/03/20,67.45,153.68,96,29.97,14.32,100
159,3867427,Mayor Pablo Lagerenza,PY,05/03/20,-19.93,-60.77,50,79.43,4.16,75
160,3839982,Punta Alta,AR,05/03/20,-38.88,-62.07,83,57.78,11.32,94
161,2400547,Gamba,GA,05/03/20,-2.65,10.0,92,78.3,4.9,74
162,5380437,Pacific Grove,US,05/03/20,36.62,-121.92,52,59.47,14.99,1
163,1507638,Chunoyar,RU,05/03/20,57.45,97.32,70,41.4,6.02,29
164,2387435,Damara,CF,05/03/20,4.96,18.7,66,84.2,2.24,5
165,2157698,Mildura,AU,05/03/20,-34.2,142.15,87,47.61,2.24,90
166,2618795,Klaksvík,FO,05/03/20,62.23,-6.59,72,39.2,9.17,72
167,1519422,Semey,KZ,05/03/20,50.41,80.23,93,51.8,13.42,40
168,3471451,Arraial do Cabo,BR,05/03/20,-22.97,-42.03,70,71.78,14.07,2
169,1106643,Quatre Cocos,MU,05/03/20,-20.21,57.76,88,76.68,9.17,40
170,777019,Vardø,NO,05/03/20,70.37,31.11,100,33.8,13.87,75
171,2729907,Longyearbyen,SJ,05/03/20,78.22,15.64,72,15.8,1.12,40
172,1651103,Atambua,ID,05/03/20,-9.11,124.89,74,73.92,6.87,47
173,3449747,Santa Vitória do Palmar,BR,05/03/20,-33.52,-53.37,79,57.36,5.48,23
174,102527,Sakakah,SA,05/03/20,29.97,40.21,13,78.8,10.29,40
175,4031637,Lavrentiya,RU,05/03/20,65.58,-171.0,91,32.02,1.45,0
176,3840092,Puerto Madryn,AR,05/03/20,-42.77,-65.04,39,61.95,6.53,13
177,2281120,Tabou,CI,05/03/20,4.42,-7.35,87,80.92,5.57,100
178,3932145,Pisco,PE,05/03/20,-13.7,-76.22,77,68.59,23.04,1
179,2610343,Vestmanna,FO,05/03/20,62.16,-7.17,73,39.2,9.17,54
180,6445060,Sainte-Maxime,FR,05/03/20,43.3,6.63,76,57.13,1.12,47
181,1517637,Ushtobe,KZ,05/03/20,45.25,77.98,60,58.1,8.05,59
182,3353383,Rundu,NA,05/03/20,-17.93,19.77,27,66.43,3.76,64
183,1728789,Bailan,PH,05/03/20,11.46,122.83,82,82.81,6.8,100
184,2738381,Lata,PT,05/03/20,40.16,-8.33,72,67.89,2.24,68
185,2173323,Bundaberg,AU,05/03/20,-24.85,152.35,48,66.02,6.93,90
186,1488414,Urengoy,RU,05/03/20,65.97,78.37,98,25.65,14.41,100
187,3939761,Hualmay,PE,05/03/20,-11.1,-77.61,77,69.91,10.51,10
188,2636790,Stornoway,GB,05/03/20,58.21,-6.39,81,42.04,4.7,0
189,70979,Sayyan,YE,05/03/20,15.17,44.32,37,59.9,3.02,94
190,2074865,Carnarvon,AU,05/03/20,-24.87,113.63,100,55.4,0.92,90
191,3381428,Iracoubo,GF,05/03/20,5.48,-53.2,90,78.44,11.43,100
192,3430863,Mar del Plata,AR,05/03/20,-38.0,-57.56,93,59.0,6.93,90
193,1254046,Tura,IN,05/03/20,25.52,90.22,73,70.3,2.48,15
194,1267390,Kavaratti,IN,05/03/20,10.57,72.64,81,85.32,12.33,63
195,3654541,Macas,EC,05/03/20,-2.32,-78.12,100,66.2,2.24,90
196,6316343,Alta Floresta,BR,05/03/20,-9.88,-56.09,82,74.26,2.08,24
197,3985710,Cabo San Lucas,MX,05/03/20,22.89,-109.91,21,90.1,14.99,40
198,332288,Lalibela,ET,05/03/20,12.03,39.03,30,63.72,0.85,91
199,3985168,San Patricio,MX,05/03/20,19.22,-104.7,83,80.6,17.22,20
200,145531,Saurimo,AO,05/03/20,-9.66,20.39,62,66.49,2.57,9
201,1643837,Gorontalo,ID,05/03/20,0.54,123.06,86,77.9,2.15,99
202,1150085,Thung Song,TH,05/03/20,8.16,99.68,85,74.16,1.28,47
203,611847,Sukhumi,GE,05/03/20,43.0,41.02,64,60.85,4.21,99
204,60019,Eyl,SO,05/03/20,7.98,49.82,73,85.44,10.51,90
205,582447,Almaznyy,RU,05/03/20,48.04,40.05,93,57.2,6.71,20
206,5848280,Kapaa,US,05/03/20,22.08,-159.32,65,79.84,20.8,75
207,4034551,Faanui,PF,05/03/20,-16.48,-151.75,76,82.63,13.29,0
208,3698608,Celendín,PE,05/03/20,-6.87,-78.15,39,59.0,4.34,55
209,6096551,Pangnirtung,CA,05/03/20,66.15,-65.71,91,13.26,3.76,99
210,701104,Milove,UA,05/03/20,49.38,40.13,88,53.37,12.06,76
211,377472,Bentiu,SS,05/03/20,9.23,29.83,48,83.23,5.7,96
212,3430545,Morón,AR,05/03/20,-34.65,-58.62,100,62.83,4.05,92
213,2112802,Hasaki,JP,05/03/20,35.73,140.83,93,65.19,8.05,75
214,2259655,Impfondo,CG,05/03/20,1.64,18.07,60,77.54,0.45,52
215,2810284,Westerland,DE,05/03/20,54.91,8.3,87,43.0,1.99,62
216,2063036,Port Lincoln,AU,05/03/20,-34.73,135.87,72,58.08,3.24,33
217,1263997,Mahabalipuram,IN,05/03/20,12.63,80.17,83,84.6,3.36,40
218,2063523,Perth,AU,05/03/20,-31.93,115.83,93,65.73,9.17,75
219,6089245,Norman Wells,CA,05/03/20,65.28,-126.83,92,32.0,13.87,75
220,287832,Ibrā’,OM,05/03/20,22.69,58.53,40,82.04,3.87,0
221,1490042,Tashtagol,RU,05/03/20,52.77,87.89,54,50.34,3.18,100
222,2126785,Belaya Gora,RU,05/03/20,68.53,146.42,95,19.27,8.12,96
223,3458498,Linhares,BR,05/03/20,-19.39,-40.07,76,69.19,6.31,1
224,7117100,Vila,PT,05/03/20,42.03,-8.16,72,64.0,3.0,9
225,5882953,Aklavik,CA,05/03/20,68.22,-135.01,62,21.2,6.93,20
226,3393471,Oriximiná,BR,05/03/20,-1.77,-55.87,90,79.03,2.37,100
227,2123814,Leningradskiy,RU,05/03/20,69.38,178.42,87,29.86,2.01,0
228,3899695,Ancud,CL,05/03/20,-41.87,-73.82,93,51.89,2.24,75
229,2121126,Smirnykh,RU,05/03/20,49.75,142.83,62,42.94,4.72,100
230,2122090,Pevek,RU,05/03/20,69.7,170.31,91,23.7,13.18,23
231,2177069,Ballina,AU,05/03/20,-28.87,153.57,59,58.78,10.29,53
232,434147,Rutana Province,BI,05/03/20,-3.87,30.1,59,56.55,1.95,0
233,5993072,Kitimat,CA,05/03/20,54.05,-128.65,66,50.0,21.92,75
234,694919,Sakhnovshchyna,UA,05/03/20,49.15,35.87,89,54.5,5.23,79
235,300614,Siverek,TR,05/03/20,37.76,39.32,76,55.4,4.7,75
236,2630299,Hofn,IS,05/03/20,64.25,-15.21,65,42.24,6.8,100
237,667303,Sfântu Gheorghe,RO,05/03/20,45.87,25.78,93,46.0,4.0,100
238,2961459,Skibbereen,IE,05/03/20,51.55,-9.27,76,50.0,4.7,75
239,1264976,Leh,IN,05/03/20,34.17,77.58,17,38.35,4.21,94
240,1819729,Hong Kong,HK,05/03/20,22.29,114.16,78,77.5,8.01,14
241,2455290,Kidal,ML,05/03/20,18.44,1.41,12,83.46,3.85,0
242,2022572,Khatanga,RU,05/03/20,71.97,102.5,95,9.99,5.41,99
243,2221607,Tcholliré,CM,05/03/20,8.4,14.17,64,79.18,4.99,55
244,3625710,Upata,VE,05/03/20,8.01,-62.4,79,82.99,5.99,99
245,2176639,Batemans Bay,AU,05/03/20,-35.72,150.18,65,57.99,1.01,0
246,4021858,Guerrero Negro,MX,05/03/20,27.98,-114.06,58,70.57,22.93,0
247,1808744,Hede,CN,05/03/20,33.77,120.25,86,63.72,10.38,0
248,5282297,Bethel,US,05/03/20,41.37,-73.41,21,76.69,9.17,1
249,5517675,Brownfield,US,05/03/20,33.18,-102.27,13,97.5,11.34,0
250,3381538,Grand-Santi,GF,05/03/20,4.25,-54.38,95,72.91,1.83,100
251,1607763,Phayakkhaphum Phisai,TH,05/03/20,15.52,103.19,78,80.6,4.7,40
252,143127,Arak,IR,05/03/20,34.09,49.69,27,52.21,3.53,0
253,1263494,Mormugao,IN,05/03/20,15.4,73.8,87,80.65,10.2,70
254,5855051,‘Ewa Beach,US,05/03/20,21.32,-158.01,51,81.52,10.29,75
255,3451783,Realeza,BR,05/03/20,-25.77,-53.53,44,59.0,3.24,0
256,2445704,Diffa,NE,05/03/20,13.32,12.61,44,82.44,5.75,52
257,3405215,Bonfim,BR,05/03/20,3.08,-59.95,73,81.19,6.73,85
258,3374210,São Filipe,CV,05/03/20,14.9,-24.5,56,77.22,8.52,0
259,2019326,Nerchinsk,RU,05/03/20,51.98,116.58,48,47.25,4.65,53
260,2123979,Kuril'sk,RU,05/03/20,45.23,147.88,76,46.54,11.54,100
261,1268814,Joshīmath,IN,05/03/20,30.57,79.57,26,53.8,3.98,99
262,1263942,Manavālakurichi,IN,05/03/20,8.13,77.3,74,84.2,5.82,40
263,988290,Komatipoort,ZA,05/03/20,-25.43,31.95,77,61.12,1.12,0
264,5546220,Saint George,US,05/03/20,37.1,-113.58,10,85.23,19.46,1
265,2311968,Nioki,CD,05/03/20,-2.72,17.68,71,74.84,1.7,0
266,3373329,Arrifes,PT,05/03/20,37.77,-25.7,82,59.0,21.92,40
267,2377450,Nouakchott,MR,05/03/20,18.09,-15.98,82,68.0,13.87,0
268,2332453,Lagos,NG,05/03/20,6.58,3.75,83,80.6,2.24,20
269,1271215,Gīdam,IN,05/03/20,18.98,81.4,55,78.62,2.77,11
270,2313002,Matadi,CD,05/03/20,-5.82,13.45,90,78.06,2.84,65
271,1266668,Khonsa,IN,05/03/20,27.02,95.57,62,62.96,3.02,21
272,5983607,Inuvik,CA,05/03/20,68.35,-133.72,62,21.2,6.93,20
273,523051,Nebolchi,RU,05/03/20,59.12,33.35,91,43.18,1.34,84
274,2134814,Sola,VU,05/03/20,-13.88,167.55,94,78.8,3.36,90
275,3827408,Miguel Hidalgo,MX,05/03/20,19.42,-99.2,11,80.29,9.17,20
276,3670218,San Andrés,CO,05/03/20,12.58,-81.7,66,86.0,11.41,75
277,3421765,Nanortalik,GL,05/03/20,60.14,-45.24,92,38.07,17.54,100
278,88834,Tūkrah,LY,05/03/20,32.53,20.58,86,64.56,10.0,59
279,3448903,São João da Barra,BR,05/03/20,-21.64,-41.05,78,69.35,14.0,30
280,3175096,Laas,IT,05/03/20,46.62,10.7,42,46.4,3.51,75
281,2337181,Iseyin,NG,05/03/20,7.97,3.6,78,74.95,4.54,99
282,3522186,Pajapan,MX,05/03/20,18.25,-94.7,70,87.8,23.04,40
283,4957320,Bar Harbor,US,05/03/20,44.39,-68.2,76,49.12,8.05,20
284,1707511,Languyan,PH,05/03/20,5.26,120.08,82,81.23,1.97,100
285,3991347,Puerto Peñasco,MX,05/03/20,31.32,-113.53,74,78.01,8.99,0
286,2013921,Ust-Kuyga,RU,05/03/20,70.02,135.6,90,15.98,3.02,0
287,5746545,Portland,US,05/03/20,45.52,-122.68,62,57.2,10.29,40
288,3547867,Manzanillo,CU,05/03/20,20.34,-77.12,63,84.72,10.63,68
289,1805733,Jinchang,CN,05/03/20,38.5,102.17,35,55.81,12.35,100
290,2152659,Port Macquarie,AU,05/03/20,-31.43,152.92,68,58.03,1.01,21
291,6170031,Tuktoyaktuk,CA,05/03/20,69.45,-133.04,78,14.0,9.17,90
292,5670128,Orchard Homes,US,05/03/20,46.86,-114.05,35,53.24,21.92,40
293,3996426,Matamoros,MX,05/03/20,25.53,-103.25,14,95.32,12.75,75
294,1045114,Inhambane,MZ,05/03/20,-23.86,35.38,69,71.2,7.27,0
295,1489656,Teya,RU,05/03/20,60.38,92.63,82,45.21,5.91,100
296,5506956,Las Vegas,US,05/03/20,36.17,-115.14,11,89.11,14.88,1
297,2156034,Muswellbrook,AU,05/03/20,-32.27,150.9,66,53.01,4.0,0
298,1633419,Padang,ID,05/03/20,-0.95,100.35,75,78.39,4.34,57
299,3449696,Santo Ângelo,BR,05/03/20,-28.3,-54.26,37,69.8,6.93,42
300,1495626,Pangody,RU,05/03/20,65.85,74.49,96,17.13,14.47,90
301,3708432,Jaqué,PA,05/03/20,7.52,-78.17,82,82.56,3.89,36
302,909887,Luangwa,ZM,05/03/20,-15.62,30.42,63,67.46,3.31,0
303,3395458,Maragogi,BR,05/03/20,-9.01,-35.22,82,78.53,7.29,26
304,3430443,Necochea,AR,05/03/20,-38.55,-58.74,87,57.99,10.0,70
305,6167817,Torbay,CA,05/03/20,47.67,-52.73,100,36.32,8.05,90
306,3372472,Vila Franca do Campo,PT,05/03/20,37.72,-25.43,82,59.0,21.92,40
307,4164601,Miramar,US,05/03/20,25.99,-80.23,48,79.83,9.17,1
308,2013392,Vilyuysk,RU,05/03/20,63.76,121.62,88,31.33,2.06,35
309,162158,Baharly,TM,05/03/20,38.44,57.43,44,71.6,5.37,100
310,2374583,Bubaque,GW,05/03/20,11.28,-15.83,72,78.49,16.13,3
311,2120612,Tigil',RU,05/03/20,57.8,158.67,88,34.0,3.67,100
312,4634662,Kingsport,US,05/03/20,36.55,-82.56,36,78.6,10.29,20
313,5954718,Flin Flon,CA,05/03/20,54.77,-101.86,33,42.8,6.93,20
314,6255012,Flinders,AU,05/03/20,-34.58,150.86,67,57.42,5.01,0
315,5097801,Fairview,US,05/03/20,40.81,-74.0,27,78.35,9.17,1
316,64814,Bandarbeyla,SO,05/03/20,9.49,50.81,78,83.86,10.07,71
317,359173,Beni Suef,EG,05/03/20,29.07,31.1,44,69.87,7.52,0
318,2063042,Port Hedland,AU,05/03/20,-20.32,118.57,31,64.4,8.05,5
319,161312,Babati,TZ,05/03/20,-4.22,35.75,61,62.69,1.25,80
320,3908339,Patacamaya,BO,05/03/20,-17.23,-67.92,22,51.48,4.61,68
321,3445026,Vila Velha,BR,05/03/20,-20.33,-40.29,69,74.05,12.75,40
322,3450083,Santa Maria,BR,05/03/20,-29.68,-53.81,67,62.6,4.7,45
323,3665202,Aripuanã,BR,05/03/20,-9.17,-60.63,75,78.67,0.89,89
324,1218436,Saýat,TM,05/03/20,38.78,63.88,82,66.2,16.11,90
325,5919850,Chapais,CA,05/03/20,49.78,-74.85,86,39.2,9.17,90
326,1646281,Ciparay,ID,05/03/20,-7.42,108.47,87,74.95,2.06,68
327,286621,Salalah,OM,05/03/20,17.02,54.09,89,84.2,5.82,40
328,2347758,Bara,NG,05/03/20,10.37,10.73,54,85.06,10.07,100
329,2355404,Solenzo,BF,05/03/20,12.18,-4.08,10,96.39,3.09,3
330,2182010,Tairua,NZ,05/03/20,-37.02,175.85,76,69.21,5.01,36
331,5703673,Elko,US,05/03/20,41.0,-115.5,19,61.47,18.34,20
332,1253972,Udangudi,IN,05/03/20,8.43,78.02,68,85.08,5.68,78
333,2401495,Booué,GA,05/03/20,-0.09,11.94,87,75.27,1.83,100
334,1732826,Mersing,MY,05/03/20,2.43,103.84,100,77.0,2.26,81
335,2126710,Beringovskiy,RU,05/03/20,63.05,179.32,93,28.04,0.94,5
336,4529292,Altus,US,05/03/20,34.64,-99.33,45,85.6,9.17,1
337,5927969,Corner Brook,CA,05/03/20,48.97,-57.95,87,39.49,9.17,90
338,3629419,Quibor,VE,05/03/20,9.93,-69.62,24,100.4,13.87,87
339,893549,Chipinge,ZW,05/03/20,-20.19,32.62,37,56.17,3.38,0
340,1242110,Kalmunai,LK,05/03/20,7.42,81.82,82,80.4,3.74,50
341,2122493,Omsukchan,RU,05/03/20,62.53,155.8,90,23.72,5.48,100
342,2738785,Guarda,PT,05/03/20,40.54,-7.27,57,60.69,7.31,100
343,2168305,Dubbo,AU,05/03/20,-32.25,148.62,93,46.4,3.36,0
344,863061,Usinsk,RU,05/03/20,65.99,57.53,97,24.44,5.77,92
345,2136825,Isangel,VU,05/03/20,-19.55,169.27,78,77.0,3.36,90
346,3663495,Manoel Urbano,BR,05/03/20,-8.84,-69.26,80,77.13,0.6,92
347,336454,Ginir,ET,05/03/20,7.13,40.7,55,57.9,7.36,86
348,2146219,Hervey Bay,AU,05/03/20,-25.3,152.85,64,61.0,5.01,80
349,244878,Biltine,TD,05/03/20,14.53,20.92,16,79.32,2.91,18
350,2662689,Visby,SE,05/03/20,57.64,18.3,93,40.14,4.7,0
351,4034496,Fare,PF,05/03/20,-16.7,-151.02,76,83.57,13.29,52
352,2646557,Horsham,GB,05/03/20,51.06,-0.33,93,50.77,5.82,75
353,3176748,Forio,IT,05/03/20,40.73,13.86,61,63.28,3.0,25
354,1606851,Sai Buri,TH,05/03/20,6.7,101.62,83,77.61,3.09,71
355,3407882,Altamira,BR,05/03/20,-3.2,-52.21,94,80.6,2.46,100
356,3672086,Pizarro,CO,05/03/20,4.95,-77.37,83,81.5,6.4,15
357,5038045,Monticello,US,05/03/20,45.31,-93.79,29,59.09,10.83,1
358,108410,Riyadh,SA,05/03/20,24.69,46.72,29,77.0,2.24,0
359,2644605,Lerwick,GB,05/03/20,60.15,-1.15,86,38.3,2.24,49
360,2644204,Livingston,GB,05/03/20,55.9,-3.52,93,45.82,6.93,20
361,3427761,Tigre,AR,05/03/20,-34.43,-58.58,68,62.37,3.36,90
362,2015306,Tiksi,RU,05/03/20,71.69,128.87,93,19.11,7.72,90
363,5847411,Kahului,US,05/03/20,20.89,-156.47,54,77.02,24.16,40
364,2447513,Arlit,NE,05/03/20,18.74,7.39,18,87.12,6.06,31
365,3675637,Majagual,CO,05/03/20,8.54,-74.62,84,83.01,1.1,92
366,1490256,Talnakh,RU,05/03/20,69.49,88.4,92,15.8,20.13,20
367,3421319,Nuuk,GL,05/03/20,64.18,-51.72,74,34.25,20.8,89
368,2387890,Bouca,CF,05/03/20,6.51,18.27,66,77.32,2.46,99
369,1701054,Marawi,PH,05/03/20,8.0,124.29,81,78.01,4.0,31
370,1254709,Tezu,IN,05/03/20,27.92,96.17,55,70.07,3.36,1
371,3893629,Coquimbo,CL,05/03/20,-29.95,-71.34,82,60.8,8.05,0
372,3141667,Roald,NO,05/03/20,62.58,6.13,70,36.66,9.17,91
373,1715015,Dicabisagan,PH,05/03/20,17.08,122.42,76,82.36,5.73,95
374,3372964,Lagoa,PT,05/03/20,39.05,-27.98,81,57.45,21.47,86
375,3382160,Cayenne,GF,05/03/20,4.93,-52.33,100,77.0,2.24,90
376,1267776,Kargil,IN,05/03/20,34.57,76.1,19,35.29,5.17,96
377,3394023,Natal,BR,05/03/20,-5.79,-35.21,78,80.6,6.93,20
378,525365,Mordovo,RU,05/03/20,52.08,40.77,71,56.19,11.3,100
379,2092164,Lorengau,PG,05/03/20,-2.02,147.27,71,84.97,3.27,59
380,1502073,Krasnosel'kup,RU,05/03/20,65.7,82.47,97,34.03,7.81,100
381,471160,Voznesen'ye,RU,05/03/20,61.01,35.48,94,41.83,6.98,75
382,2396853,Omboué,GA,05/03/20,-1.57,9.26,93,79.07,5.55,100
383,3868633,Vallenar,CL,05/03/20,-28.57,-70.76,62,60.21,1.48,3
384,6171633,Ucluelet,CA,05/03/20,48.93,-125.55,71,54.48,10.29,20
385,1487939,Uvat,RU,05/03/20,59.14,68.9,93,32.74,7.23,54
386,4231997,Avera,US,05/03/20,33.19,-82.53,30,82.89,10.29,1
387,172515,Abu Samrah,SY,05/03/20,35.3,37.18,58,59.72,5.46,86
388,6447156,Port-de-Bouc,FR,05/03/20,43.4,4.98,68,63.84,10.29,87
389,1263911,Māndalgarh,IN,05/03/20,25.2,75.1,33,82.4,6.08,11
390,5411479,Alamosa,US,05/03/20,37.47,-105.87,5,78.8,21.92,1
391,1714733,Dingle,PH,05/03/20,11.0,122.67,79,82.49,4.65,100
392,3839307,Rawson,AR,05/03/20,-43.3,-65.1,40,61.38,8.68,5
393,2013258,Vrangel',RU,05/03/20,42.73,133.08,95,46.11,11.74,100
394,8070821,Kapasan,ID,05/03/20,-6.78,111.38,91,75.74,4.07,4
395,3897347,Calama,CL,05/03/20,-22.47,-68.93,15,68.0,16.11,40
396,480085,Tuzha,RU,05/03/20,57.61,47.94,71,45.0,8.28,64
397,686090,Asău,RO,05/03/20,46.43,26.4,84,51.01,1.83,100
398,2208091,Waitara,NZ,05/03/20,-38.92,174.25,86,56.52,10.0,62
399,2507480,Algiers,DZ,05/03/20,36.75,3.04,87,60.8,5.17,5
400,1493162,Salym,RU,05/03/20,60.06,71.48,97,29.59,7.47,39
401,515805,Oktyabr'skoye,RU,05/03/20,43.06,44.74,100,48.09,2.24,77
402,1261853,Narasannapeta,IN,05/03/20,18.42,84.05,85,81.81,10.2,42
403,3137469,Sørland,NO,05/03/20,67.67,12.69,86,38.88,15.35,99
404,6078372,Moose Factory,CA,05/03/20,51.26,-80.61,79,24.8,13.87,90
405,1504019,Kazanskoye,RU,05/03/20,55.64,69.23,76,38.16,9.42,51
406,3520994,Puerto Escondido,MX,05/03/20,15.85,-97.07,70,84.2,9.17,5
407,2084442,Vanimo,PG,05/03/20,-2.67,141.3,84,79.29,6.49,99
408,296173,Yüksekova,TR,05/03/20,37.57,44.29,47,53.6,4.7,40
409,2093685,Kokopo,PG,05/03/20,-4.35,152.26,72,82.94,4.45,88
410,2317397,Bandundu Province,CD,05/03/20,-3.32,17.37,72,76.06,2.21,0
411,2185964,North Shore,NZ,05/03/20,-36.8,174.75,82,66.94,8.99,66
412,1162094,Ziarat,PK,05/03/20,30.38,67.73,19,55.13,4.09,26
413,4032420,Neiafu,TO,05/03/20,-18.65,-173.98,74,82.4,8.05,75
414,4682991,Conroe,US,05/03/20,30.31,-95.46,43,88.25,10.29,1
415,2027296,Aykhal,RU,05/03/20,66.0,111.5,40,33.8,4.47,37
416,3115824,Muros,ES,05/03/20,42.78,-9.06,78,63.59,3.47,0
417,2647984,Great Yarmouth,GB,05/03/20,52.61,1.73,99,49.35,1.01,93
418,1802276,Longyan,CN,05/03/20,25.11,117.02,99,82.0,0.11,18
419,1255816,Sompeta,IN,05/03/20,18.93,84.6,90,81.16,11.21,53
420,515246,Onega,RU,05/03/20,63.91,38.14,95,44.58,7.63,98
421,3855075,General Pico,AR,05/03/20,-35.66,-63.76,71,58.1,8.66,10
422,1630639,Pringsewu,ID,05/03/20,-5.36,104.97,91,73.72,0.22,100
423,1809263,Guozhen,CN,05/03/20,34.37,107.36,33,73.9,5.73,5
424,3687238,Cartagena,CO,05/03/20,10.4,-75.51,74,86.0,13.87,40
425,2063056,Port Augusta,AU,05/03/20,-32.5,137.77,93,49.69,3.36,0
426,3670745,Riohacha,CO,05/03/20,11.54,-72.91,67,85.37,11.1,99
427,2145214,Victoria Point,AU,05/03/20,-27.58,153.3,49,65.62,1.01,6
428,304919,Malatya Province,TR,05/03/20,38.5,38.0,71,53.6,2.24,75
429,3372760,Praia da Vitória,PT,05/03/20,38.73,-27.07,87,57.2,21.09,40
430,2177671,Armidale,AU,05/03/20,-30.52,151.65,77,37.99,1.01,10
431,617638,Orhei,MD,05/03/20,47.38,28.82,93,57.09,3.36,51
432,3391387,Porto de Moz,BR,05/03/20,-1.75,-52.24,91,77.63,2.62,98
433,2151437,Rockhampton,AU,05/03/20,-23.38,150.5,45,64.4,5.82,18
434,1729469,Baculin,PH,05/03/20,7.45,126.58,71,82.78,1.57,10
435,6172009,Unity,CA,05/03/20,52.45,-109.17,33,63.54,19.42,99
436,215976,Ilebo,CD,05/03/20,-4.32,20.58,75,72.5,1.83,0
437,3996893,Caborca,MX,05/03/20,30.58,-111.1,17,93.0,1.01,0
438,2027316,Ayan,RU,05/03/20,56.45,138.17,78,34.63,16.42,100
439,2033196,Zhangjiakou,CN,05/03/20,40.81,114.88,32,58.21,4.63,100
440,3379316,Lethem,GY,05/03/20,3.38,-59.8,74,80.46,6.87,78
441,2172517,Canberra,AU,05/03/20,-35.28,149.13,100,40.51,3.22,40
442,2171099,Codrington,AU,05/03/20,-38.27,141.97,83,54.55,4.14,100
443,2645988,Ivybridge,GB,05/03/20,50.39,-3.92,95,49.96,1.01,43
444,343593,Āreka,ET,05/03/20,7.07,37.7,53,61.54,2.42,100
445,2112309,Katsuura,JP,05/03/20,35.13,140.3,93,63.95,5.82,75
446,934649,Cap Malheureux,MU,05/03/20,-19.98,57.61,79,78.01,5.99,66
447,3939168,Huarmey,PE,05/03/20,-10.07,-78.15,75,71.53,11.12,26
448,571159,Buguruslan,RU,05/03/20,53.66,52.44,73,42.46,6.31,5
449,2128975,Nemuro,JP,05/03/20,43.32,145.57,93,49.5,15.39,100
450,1801722,Lüshunkou,CN,05/03/20,38.8,121.27,70,46.4,15.66,97
451,2208425,Zuwārah,LY,05/03/20,32.93,12.08,53,70.95,3.94,0
452,6144195,Senneterre,CA,05/03/20,48.38,-77.23,93,39.2,17.22,90
453,3838859,Río Gallegos,AR,05/03/20,-51.62,-69.22,87,44.6,5.82,90
454,110690,Faya,SA,05/03/20,18.39,42.45,49,68.9,1.32,72
455,2122293,Ozernovskiy,RU,05/03/20,51.5,156.52,84,35.87,9.57,4
456,4235229,Carlyle,US,05/03/20,38.61,-89.37,47,67.73,4.0,92
457,5879400,Anchorage,US,05/03/20,61.22,-149.9,21,59.74,10.29,1
458,3122172,Foz,ES,05/03/20,43.57,-7.25,1,57.0,4.72,0
459,1493004,Sargatskoye,RU,05/03/20,55.61,73.5,81,40.86,10.22,95
460,2975967,Sarrebourg,FR,05/03/20,48.73,7.05,76,53.15,5.82,92
461,6151456,Souris,CA,05/03/20,49.62,-100.26,46,51.48,11.41,20
462,2459775,Bougouni,ML,05/03/20,11.42,-7.48,18,90.57,3.47,1
463,5955902,Fort Nelson,CA,05/03/20,58.81,-122.7,30,68.0,10.29,75
464,1863997,Fukuechō,JP,05/03/20,32.69,128.84,93,65.68,9.73,82
465,3840300,Presidencia Roque Sáenz Peña,AR,05/03/20,-26.79,-60.44,58,68.36,6.69,28
466,1179758,Diplo,PK,05/03/20,24.47,69.58,82,78.84,12.39,0
467,792553,Blatec,MK,05/03/20,41.84,22.58,65,42.62,4.76,52
468,1640972,Katobu,ID,05/03/20,-4.94,122.53,88,77.92,2.04,98
469,3526756,Isla Mujeres,MX,05/03/20,21.23,-86.73,70,84.09,11.41,40
470,898947,Senanga,ZM,05/03/20,-16.12,23.27,41,64.26,3.89,4
471,1848976,Wajima,JP,05/03/20,37.4,136.9,67,63.12,6.85,81
472,1277874,Bāgli,IN,05/03/20,22.65,76.35,26,83.14,11.97,0
473,2510573,Teguise,ES,05/03/20,29.06,-13.56,72,68.0,13.87,7
474,3385899,Tutóia,BR,05/03/20,-2.76,-42.27,89,79.41,7.56,100
475,3601402,Savannah Bight,HN,05/03/20,16.45,-85.85,78,82.02,17.4,0
476,6620339,Karratha,AU,05/03/20,-20.74,116.85,66,70.14,11.99,0
477,3465145,Crixás,BR,05/03/20,-14.55,-49.97,66,71.96,1.34,44
478,2012530,Zhigansk,RU,05/03/20,66.77,123.37,92,23.34,1.5,0
479,1852357,Shimoda,JP,05/03/20,34.67,138.95,92,57.0,1.01,100
480,3038350,Aix-les-Bains,FR,05/03/20,45.68,5.92,93,50.31,3.36,58
481,1059051,Miandrivazo,MG,05/03/20,-19.52,45.47,78,72.09,1.83,5
482,3421719,Narsaq,GL,05/03/20,60.92,-46.05,91,32.0,4.7,100
483,1738050,Marabu,MY,05/03/20,4.41,114.01,94,80.31,3.36,75
484,3576994,Cockburn Town,TC,05/03/20,21.46,-71.14,76,79.93,13.15,0
485,1272140,Dwārka,IN,05/03/20,22.24,68.97,80,81.79,13.24,0
486,2206874,Waipawa,NZ,05/03/20,-41.41,175.52,82,59.59,18.34,17
487,2512186,Puerto del Rosario,ES,05/03/20,28.5,-13.86,77,68.0,14.99,1
488,3580477,West Bay,KY,05/03/20,19.37,-81.42,79,84.54,11.41,75
489,644499,Nivala,FI,05/03/20,63.92,24.97,92,35.01,4.7,0
490,1024696,Dondo,MZ,05/03/20,-19.61,34.74,82,68.0,1.79,0
491,2538474,Rabat,MA,05/03/20,33.99,-6.84,52,74.57,4.7,64
492,3580733,Bodden Town,KY,05/03/20,19.28,-81.25,79,84.43,11.41,75
493,5386754,Redlands,US,05/03/20,34.06,-117.18,28,80.98,6.93,5
494,637219,Seinäjoki,FI,05/03/20,62.79,22.83,85,41.0,4.7,0
495,663331,Valea Ursului,RO,05/03/20,46.82,27.08,87,53.8,12.75,99
496,1685422,Sulangan,PH,05/03/20,11.14,123.72,82,83.21,11.03,100
497,961226,Ritchie,ZA,05/03/20,-29.04,24.6,81,48.2,1.5,0
498,5821593,Cody,US,05/03/20,44.53,-109.06,24,64.06,13.87,1
499,2412408,Nioro,GM,05/03/20,13.35,-15.75,41,77.52,7.78,0
500,5545269,Price,US,05/03/20,39.6,-110.81,21,69.8,14.99,75
501,702679,Luhyny,UA,05/03/20,51.08,28.4,87,53.6,8.1,98
502,2980080,Saint-François,FR,05/03/20,46.42,3.91,87,53.6,2.24,90
503,964090,Prieska,ZA,05/03/20,-29.66,22.75,23,58.46,3.98,36
504,2160517,Launceston,AU,05/03/20,-41.45,147.17,81,47.23,0.78,33
505,3936088,Lluta,PE,05/03/20,-16.01,-72.01,24,52.18,3.2,84
506,2636638,Stromness,GB,05/03/20,58.97,-3.3,81,42.8,8.05,4
507,6137462,Saint-Augustin,CA,05/03/20,51.23,-58.65,86,35.29,4.88,55
508,1648186,Bontang,ID,05/03/20,0.13,117.5,86,77.77,5.37,99
509,2013865,Ust'-Uda,RU,05/03/20,54.17,103.03,58,41.77,2.06,6
510,1507116,Dudinka,RU,05/03/20,69.41,86.18,92,15.8,20.13,20
511,2192362,Christchurch,NZ,05/03/20,-43.53,172.63,51,63.27,4.7,100
512,2520610,Caceres,ES,05/03/20,39.52,-6.37,62,71.01,1.99,100
513,5975004,High Level,CA,05/03/20,58.52,-117.14,25,66.2,11.41,40
514,2037311,Gannan,CN,05/03/20,47.91,123.5,46,47.44,3.49,0
515,1278969,Along,IN,05/03/20,28.17,94.77,64,63.72,0.83,54
516,1696482,Pagudpud,PH,05/03/20,18.56,120.79,83,77.0,1.12,20
517,5563397,Eureka,US,05/03/20,40.8,-124.16,71,58.37,19.46,1
518,2027806,Amazar,RU,05/03/20,53.86,120.88,43,42.66,4.32,100
519,2338660,Yaan,NG,05/03/20,7.38,8.57,75,81.14,6.62,98
520,2361082,Dori,BF,05/03/20,14.04,-0.03,10,91.26,6.93,0
521,1150965,Ranong,TH,05/03/20,9.97,98.63,82,78.96,2.08,94
522,2986626,Plouzané,FR,05/03/20,48.38,-4.62,100,55.4,3.36,90
523,1733502,Ranau,MY,05/03/20,5.95,116.66,94,77.0,3.36,20
524,690032,Vendychany,UA,05/03/20,48.61,27.79,90,53.01,8.9,70
525,6355222,Yulara,AU,05/03/20,-25.24,130.99,66,50.0,5.82,0
526,3013633,Arrondissement du Havre,FR,05/03/20,49.58,0.33,100,51.87,3.36,90
527,1814093,Dali,CN,05/03/20,25.7,100.18,46,57.06,4.9,92
528,2640006,Portree,GB,05/03/20,57.41,-6.19,77,41.0,5.01,0
529,1640344,Kendari,ID,05/03/20,-3.94,122.5,88,77.38,2.95,90
530,5937252,Deer Lake,CA,05/03/20,49.17,-57.43,80,39.11,9.17,90
531,4033375,Tevaitoa,PF,05/03/20,-16.78,-151.5,76,83.48,14.63,10
532,516588,Nyrob,RU,05/03/20,60.73,56.72,96,28.54,2.51,0
533,3468732,Buritis,BR,05/03/20,-15.62,-46.42,58,68.65,2.46,15
534,3421193,Paamiut,GL,05/03/20,61.99,-49.67,97,32.45,11.54,100
535,1623197,Tual,ID,05/03/20,-5.67,132.75,78,84.2,10.56,76
536,1791121,Changde,CN,05/03/20,29.05,111.68,70,76.91,4.25,86
537,660325,Ekenäs,FI,05/03/20,59.97,23.43,94,43.0,5.66,23
538,4588165,Mt. Pleasant,US,05/03/20,32.79,-79.86,61,76.37,11.41,1
539,2174444,Bowen,AU,05/03/20,-20.02,148.23,82,68.0,4.7,19
540,3183284,Alghero,IT,05/03/20,40.56,8.32,93,60.8,5.82,26
541,3617154,Puerto Cabezas,NI,05/03/20,14.04,-83.39,64,82.53,9.55,57
542,2171722,Charters Towers,AU,05/03/20,-20.1,146.27,39,65.39,13.04,15
543,1626895,Sinjai,ID,05/03/20,-5.12,120.25,84,78.3,2.91,98
544,2126123,Chokurdakh,RU,05/03/20,70.63,147.92,94,9.97,5.21,17
545,2399697,Libreville,GA,05/03/20,0.39,9.45,83,84.2,6.93,20
546,7626348,Svarstad,NO,05/03/20,59.4,9.97,4,38.32,6.8,9
547,2433055,Dourbali,TD,05/03/20,11.81,15.86,24,94.08,4.61,100
548,3573374,The Valley,AI,05/03/20,18.22,-63.06,74,81.45,8.05,20
